[{"type": "Feature", "geometry": {"type": "Point", "coordinates": [6.138626, 49.634694]}, "properties": {"id": 200409003, "name": "Dommeldange, Château", "late": 0}}, {"type": "Feature", "geometry": {"type": "Point", "coordinates": [5.942427, 49.67057]}, "properties": {"id": 190703001, "name": "Koerich, Fuurt", "late": 2}}, {"type": "Feature", "geometry": {"type": "Point", "coordinates": [6.056392, 49.920479]}, "properties": {"id": 140304003, "name": "Goebelsmühle, Op der Gafel", "late": 1}}, {"type": "Feature", "geometry": {"type": "Point", "coordinates": [6.110489, 49.63207]}, "properties": {"id": 200401001, "name": "Bambësch, Centre Sportif", "late": 5}}, {"type": "Feature", "geometry": {"type": "Point", "coordinates": [6.139489, 49.63447]}, "properties": {"id": 200409012, "name": "Dommeldange, Sidney Thomas", "late": 0}}, {"type": "Feature", "geometry": {"type": "Point", "coordinates": [5.93938, 49.88259]}, "properties": {"id": 120501001, "name": "Eschdorf, An der Driicht", "late": 2}}, {"type": "Feature", "geometry": {"type": "Point", "coordinates": [6.093221, 49.92288]}, "properties": {"id": 140306002, "name": "Lipperscheid, Beim Leweck", "late": 1}}, {"type": "Feature", "geometry": {"type": "Point", "coordinates": [6.011545, 49.641895]}, "properties": {"id": 190901008, "name": "Capellen, Eechterfeld", "late": 0}}, {"type": "Feature", "geometry": {"type": "Point", "coordinates": [6.136891, 49.633831]}, "properties": {"id": 200409015, "name": "Dommeldange, Gare", "late": 1}}, {"type": "Feature", "geometry": {"type": "Point", "coordinates": [6.269589, 49.870257]}, "properties": {"id": 141203001, "name": "Reisdorf, An der Ee", "late": 0}}, {"type": "Feature", "geometry": {"type": "Point", "coordinates": [6.0139, 49.640888]}, "properties": {"id": 190901009, "name": "Capellen, Pafebruch", "late": 0}}, {"type": "Feature", "geometry": {"type": "Point", "coordinates": [6.235287, 49.892145]}, "properties": {"id": 141202001, "name": "Hoesdorf, Kranzenhaff", "late": 0}}, {"type": "Feature", "geometry": {"type": "Point", "coordinates": [6.238963, 49.664107]}, "properties": {"id": 200506005, "name": "Rameldange, Bounert", "late": 0}}, {"type": "Feature", "geometry": {"type": "Point", "coordinates": [5.870873, 49.79828]}, "properties": {"id": 150506007, "name": "Brisenhaff", "late": 7}}, {"type": "Feature", "geometry": {"type": "Point", "coordinates": [6.137008, 49.633337]}, "properties": {"id": 200409008, "name": "Dommeldange, Gare routière", "late": 2}}, {"type": "Feature", "geometry": {"type": "Point", "coordinates": [6.053426, 49.921145]}, "properties": {"id": 140304002, "name": "Goebelsmühle, Gare", "late": 0}}, {"type": "Feature", "geometry": {"type": "Point", "coordinates": [6.228086, 49.658525]}, "properties": {"id": 150508003, "name": "Hostert, Stade Jos Becker", "late": 0}}, {"type": "Feature", "geometry": {"type": "Point", "coordinates": [6.242181, 49.665644]}, "properties": {"id": 200506002, "name": "Rameldange, Rëtsch", "late": 0}}, {"type": "Feature", "geometry": {"type": "Point", "coordinates": [6.053129, 49.921333]}, "properties": {"id": 140304001, "name": "Goebelsmühle, Gare routière", "late": 0}}, {"type": "Feature", "geometry": {"type": "Point", "coordinates": [6.141754, 49.633571]}, "properties": {"id": 200426004, "name": "Weimerskirch, Biechelchen", "late": 0}}, {"type": "Feature", "geometry": {"type": "Point", "coordinates": [5.874693, 49.813382]}, "properties": {"id": 150506004, "name": "Folschette, Op der Plaz", "late": 0}}, {"type": "Feature", "geometry": {"type": "Point", "coordinates": [6.139668, 49.63304]}, "properties": {"id": 200409005, "name": "Dommeldange, Contournement", "late": 2}}, {"type": "Feature", "geometry": {"type": "Point", "coordinates": [6.165018, 49.637292]}, "properties": {"id": 200417022, "name": "Kirchberg, Léon Thyes", "late": 0}}, {"type": "Feature", "geometry": {"type": "Point", "coordinates": [6.00608, 49.641751]}, "properties": {"id": 190901010, "name": "Capellen, Hirebesch", "late": 0}}, {"type": "Feature", "geometry": {"type": "Point", "coordinates": [6.169171, 49.637562]}, "properties": {"id": 200417025, "name": "Kirchberg, Mathias Tresch", "late": 0}}, {"type": "Feature", "geometry": {"type": "Point", "coordinates": [5.9135, 49.687821]}, "properties": {"id": 190502003, "name": "Hobscheid, Schoul", "late": 2}}, {"type": "Feature", "geometry": {"type": "Point", "coordinates": [6.134643, 49.631791]}, "properties": {"id": 200410004, "name": "Eich, Eecher Klinick", "late": 2}}, {"type": "Feature", "geometry": {"type": "Point", "coordinates": [6.231862, 49.658669]}, "properties": {"id": 200503001, "name": "Hostert, Charlys Gare", "late": 0}}, {"type": "Feature", "geometry": {"type": "Point", "coordinates": [5.91581, 49.685546]}, "properties": {"id": 190502006, "name": "Hobscheid, Ruppert", "late": 2}}, {"type": "Feature", "geometry": {"type": "Point", "coordinates": [6.224581, 49.655145]}, "properties": {"id": 200508002, "name": "Senningerberg, Breedewues", "late": 0}}, {"type": "Feature", "geometry": {"type": "Point", "coordinates": [5.912987, 49.687614]}, "properties": {"id": 190502007, "name": "Hobscheid, Laiterie", "late": 4}}, {"type": "Feature", "geometry": {"type": "Point", "coordinates": [6.25633, 49.882743]}, "properties": {"id": 141202002, "name": "Hoesdorf, Veräinsbau", "late": 0}}, {"type": "Feature", "geometry": {"type": "Point", "coordinates": [5.916089, 49.684971]}, "properties": {"id": 190502002, "name": "Hobscheid, Hiehl", "late": 3}}, {"type": "Feature", "geometry": {"type": "Point", "coordinates": [6.138059, 49.631584]}, "properties": {"id": 200426011, "name": "Weimerskirch, Tommys Bruch", "late": 0}}, {"type": "Feature", "geometry": {"type": "Point", "coordinates": [5.997046, 49.911292]}, "properties": {"id": 120507002, "name": "Tadler, Kierfecht", "late": 0}}, {"type": "Feature", "geometry": {"type": "Point", "coordinates": [6.159768, 49.634919]}, "properties": {"id": 200417060, "name": "Kirchberg, Simone de Beauvoir", "late": 0}}, {"type": "Feature", "geometry": {"type": "Point", "coordinates": [6.128369, 49.923994]}, "properties": {"id": 130205001, "name": "Landscheid, Kiirch", "late": 0}}, {"type": "Feature", "geometry": {"type": "Point", "coordinates": [5.936359, 49.88455]}, "properties": {"id": 120501002, "name": "Eschdorf, Mairie", "late": 2}}, {"type": "Feature", "geometry": {"type": "Point", "coordinates": [6.320819, 49.748758]}, "properties": {"id": 170201005, "name": "Altrier, Kreizenhéicht (RN)", "late": 2}}, {"type": "Feature", "geometry": {"type": "Point", "coordinates": [6.001918, 49.641553]}, "properties": {"id": 190901002, "name": "Capellen, Hireknapp", "late": 4}}, {"type": "Feature", "geometry": {"type": "Point", "coordinates": [5.872599, 49.814622]}, "properties": {"id": 150506003, "name": "Folschette, Centre Culturel", "late": 4}}, {"type": "Feature", "geometry": {"type": "Point", "coordinates": [6.239655, 49.661536]}, "properties": {"id": 200505004, "name": "Oberanven, rue d'Ernster", "late": 0}}, {"type": "Feature", "geometry": {"type": "Point", "coordinates": [6.03311, 49.920381]}, "properties": {"id": 140302002, "name": "Dirbach, Village", "late": 0}}, {"type": "Feature", "geometry": {"type": "Point", "coordinates": [5.992515, 49.644214]}, "properties": {"id": 190901004, "name": "Capellen, Police", "late": 2}}, {"type": "Feature", "geometry": {"type": "Point", "coordinates": [6.117016, 49.629193]}, "properties": {"id": 200421006, "name": "Muhlenbach, Siwemuergen", "late": 3}}, {"type": "Feature", "geometry": {"type": "Point", "coordinates": [6.010826, 49.915706]}, "properties": {"id": 120506001, "name": "Ringel", "late": 1}}, {"type": "Feature", "geometry": {"type": "Point", "coordinates": [6.286984, 49.860135]}, "properties": {"id": 141201001, "name": "Bigelbach, Kiirch", "late": 0}}]