[{"type": "Feature", "geometry": {"type": "Point", "coordinates": [6.123641, 49.616132]}, "properties": {"id": 200419030, "name": "Limpertsberg, Parking Glacis", "late": 0}}, {"type": "Feature", "geometry": {"type": "Point", "coordinates": [6.345881, 49.787664]}, "properties": {"id": 170402004, "name": "Consdorf, Melicksheck", "late": 2}}, {"type": "Feature", "geometry": {"type": "Point", "coordinates": [6.215609, 49.634856]}, "properties": {"id": 200501001, "name": "Aéroport Luxembourg/Findel", "late": 0}}, {"type": "Feature", "geometry": {"type": "Point", "coordinates": [6.048104, 49.617867]}, "properties": {"id": 200101011, "name": "Bertrange, Millewee", "late": 4}}, {"type": "Feature", "geometry": {"type": "Point", "coordinates": [6.210458, 49.633013]}, "properties": {"id": 200508012, "name": "Senningerberg, Lou Hemmer", "late": 0}}, {"type": "Feature", "geometry": {"type": "Point", "coordinates": [6.252231, 49.650497]}, "properties": {"id": 200504006, "name": "Niederanven, Routscheed", "late": 0}}, {"type": "Feature", "geometry": {"type": "Point", "coordinates": [6.151993, 49.619053]}, "properties": {"id": 200406022, "name": "Luxembourg, Ecole Ste Sophie", "late": 0}}, {"type": "Feature", "geometry": {"type": "Point", "coordinates": [6.177603, 49.623808]}, "properties": {"id": 200422003, "name": "Neudorf/Weimershof, Fierschterhaus", "late": 0}}, {"type": "Feature", "geometry": {"type": "Point", "coordinates": [6.346879, 49.782369]}, "properties": {"id": 170402003, "name": "Consdorf, Kraizstrooss", "late": 1}}, {"type": "Feature", "geometry": {"type": "Point", "coordinates": [6.254721, 49.651531]}, "properties": {"id": 200504002, "name": "Niederanven, Laach", "late": 0}}, {"type": "Feature", "geometry": {"type": "Point", "coordinates": [6.116584, 49.615143]}, "properties": {"id": 200425005, "name": "Rollingergrund, Biischtefabrick", "late": 3}}, {"type": "Feature", "geometry": {"type": "Point", "coordinates": [6.126751, 49.615709]}, "properties": {"id": 200405014, "name": "Centre, Fondation Pescatore", "late": 3}}, {"type": "Feature", "geometry": {"type": "Point", "coordinates": [6.108458, 49.614388]}, "properties": {"id": 200403018, "name": "Belair, Rue d'Ostende", "late": 1}}, {"type": "Feature", "geometry": {"type": "Point", "coordinates": [5.936926, 49.650237]}, "properties": {"id": 191102002, "name": "Hagen, Bréck", "late": 3}}, {"type": "Feature", "geometry": {"type": "Point", "coordinates": [6.156757, 49.61899]}, "properties": {"id": 200408002, "name": "Neudorf, Fixmer", "late": 2}}, {"type": "Feature", "geometry": {"type": "Point", "coordinates": [6.225767, 49.917046]}, "properties": {"id": 130202002, "name": "Bettel, Schmedd", "late": 0}}, {"type": "Feature", "geometry": {"type": "Point", "coordinates": [5.920044, 49.659783]}, "properties": {"id": 191104009, "name": "Steinfort, Äischzenter", "late": 8}}, {"type": "Feature", "geometry": {"type": "Point", "coordinates": [6.319767, 49.852431]}, "properties": {"id": 170102001, "name": "Dillingen Déiljen", "late": 0}}, {"type": "Feature", "geometry": {"type": "Point", "coordinates": [6.132828, 49.615835]}, "properties": {"id": 200423003, "name": "Pfaffenthal, Théiwesbuer", "late": 2}}, {"type": "Feature", "geometry": {"type": "Point", "coordinates": [6.011293, 49.623269]}, "properties": {"id": 190903004, "name": "Mamer, Coq Hardi", "late": 0}}, {"type": "Feature", "geometry": {"type": "Point", "coordinates": [6.343148, 49.744614]}, "properties": {"id": 170206001, "name": "Zittig, Kapell", "late": 2}}, {"type": "Feature", "geometry": {"type": "Point", "coordinates": [6.113537, 49.614244]}, "properties": {"id": 200403017, "name": "Belair, Nicolas Simmer", "late": 2}}, {"type": "Feature", "geometry": {"type": "Point", "coordinates": [6.330689, 49.71744]}, "properties": {"id": 180208001, "name": "Weidig", "late": 0}}, {"type": "Feature", "geometry": {"type": "Point", "coordinates": [5.852859, 49.824996]}, "properties": {"id": 150512004, "name": "Rambrouch, Riesenknäppchen", "late": 4}}, {"type": "Feature", "geometry": {"type": "Point", "coordinates": [6.256852, 49.651226]}, "properties": {"id": 200504004, "name": "Niederanven, Minsbecherstrooss", "late": 0}}, {"type": "Feature", "geometry": {"type": "Point", "coordinates": [6.037991, 49.617732]}, "properties": {"id": 200101021, "name": "Bertrange, Ecole Européenne II", "late": 0}}, {"type": "Feature", "geometry": {"type": "Point", "coordinates": [6.163292, 49.619242]}, "properties": {"id": 200406005, "name": "Cents, Charles de Tornaco", "late": 0}}, {"type": "Feature", "geometry": {"type": "Point", "coordinates": [6.204588, 49.629166]}, "properties": {"id": 200501004, "name": "Findel", "late": 0}}, {"type": "Feature", "geometry": {"type": "Point", "coordinates": [6.048572, 49.61579]}, "properties": {"id": 200101017, "name": "Bertrange, Rue de Mamer", "late": 4}}, {"type": "Feature", "geometry": {"type": "Point", "coordinates": [5.915271, 49.66132]}, "properties": {"id": 191104001, "name": "Steinfort, Al Schmelz", "late": 2}}, {"type": "Feature", "geometry": {"type": "Point", "coordinates": [6.151705, 49.617067]}, "properties": {"id": 200422005, "name": "Neudorf/Weimershof, Hierzekrëpp", "late": 2}}, {"type": "Feature", "geometry": {"type": "Point", "coordinates": [6.119604, 49.613678]}, "properties": {"id": 200405061, "name": "Centre, Stäreplaz / Étoile (Tram)", "late": 0}}, {"type": "Feature", "geometry": {"type": "Point", "coordinates": [6.160577, 49.61837]}, "properties": {"id": 200406002, "name": "Cents, Arthur Knaff", "late": 0}}, {"type": "Feature", "geometry": {"type": "Point", "coordinates": [6.029766, 49.618397]}, "properties": {"id": 190903011, "name": "Mamer (Lycée), Gare", "late": 2}}, {"type": "Feature", "geometry": {"type": "Point", "coordinates": [6.119056, 49.613507]}, "properties": {"id": 200405045, "name": "Centre, Stäreplaz / Étoile (Bus)", "late": 2}}, {"type": "Feature", "geometry": {"type": "Point", "coordinates": [6.017972, 49.934026]}, "properties": {"id": 120405002, "name": "Masseler, Op der Houscht", "late": 0}}, {"type": "Feature", "geometry": {"type": "Point", "coordinates": [6.115946, 49.613219]}, "properties": {"id": 200403022, "name": "Luxembourg, Square New York", "late": 0}}, {"type": "Feature", "geometry": {"type": "Point", "coordinates": [6.26211, 49.652951]}, "properties": {"id": 200504001, "name": "Niederanven, Geisfeld", "late": 0}}, {"type": "Feature", "geometry": {"type": "Point", "coordinates": [5.970357, 49.920749]}, "properties": {"id": 120404001, "name": "Goesdorf, Gemeng", "late": 0}}, {"type": "Feature", "geometry": {"type": "Point", "coordinates": [6.17425, 49.620725]}, "properties": {"id": 200406014, "name": "Cents, Paul Albrecht", "late": 0}}, {"type": "Feature", "geometry": {"type": "Point", "coordinates": [6.165728, 49.619017]}, "properties": {"id": 200406008, "name": "Cents, Gabriel de Marie", "late": 0}}, {"type": "Feature", "geometry": {"type": "Point", "coordinates": [6.125034, 49.613606]}, "properties": {"id": 200405049, "name": "Luxembourg, Amélie", "late": 0}}, {"type": "Feature", "geometry": {"type": "Point", "coordinates": [6.232239, 49.638281]}, "properties": {"id": 200501003, "name": "Findel, Cargo Center", "late": 0}}, {"type": "Feature", "geometry": {"type": "Point", "coordinates": [6.11226, 49.612671]}, "properties": {"id": 200403002, "name": "Belair, Archiducs", "late": 0}}, {"type": "Feature", "geometry": {"type": "Point", "coordinates": [6.09759, 49.612302]}, "properties": {"id": 200403019, "name": "Belair, Val Ste Croix", "late": 0}}, {"type": "Feature", "geometry": {"type": "Point", "coordinates": [6.313241, 49.863425]}, "properties": {"id": 141205001, "name": "Hermeswis", "late": 0}}, {"type": "Feature", "geometry": {"type": "Point", "coordinates": [6.129169, 49.613534]}, "properties": {"id": 200405005, "name": "Centre, Badanstalt", "late": 3}}]