[{"type": "Feature", "geometry": {"type": "Point", "coordinates": [6.135093, 49.611655]}, "properties": {"id": 200423004, "name": "Pfaffenthal, Um Bock", "late": 0}}, {"type": "Feature", "geometry": {"type": "Point", "coordinates": [5.848984, 49.830309]}, "properties": {"id": 150512006, "name": "Rambrouch, Gare", "late": 5}}, {"type": "Feature", "geometry": {"type": "Point", "coordinates": [6.308504, 49.681825]}, "properties": {"id": 180105002, "name": "Olingen, Beim leschte Wollef", "late": 0}}, {"type": "Feature", "geometry": {"type": "Point", "coordinates": [5.885543, 49.876279]}, "properties": {"id": 120803001, "name": "Neunhausen, An der Urt", "late": 0}}, {"type": "Feature", "geometry": {"type": "Point", "coordinates": [5.927945, 49.649131]}, "properties": {"id": 191102001, "name": "Hagen, 2 Stengëforterstrooss", "late": 4}}, {"type": "Feature", "geometry": {"type": "Point", "coordinates": [6.154069, 49.613866]}, "properties": {"id": 200406017, "name": "Cents, Tawioun", "late": 0}}, {"type": "Feature", "geometry": {"type": "Point", "coordinates": [6.103936, 49.609561]}, "properties": {"id": 200403012, "name": "Belair, Oradour", "late": 0}}, {"type": "Feature", "geometry": {"type": "Point", "coordinates": [5.923927, 49.651208]}, "properties": {"id": 191102004, "name": "Hagen, Laach", "late": 4}}, {"type": "Feature", "geometry": {"type": "Point", "coordinates": [6.131659, 49.611089]}, "properties": {"id": 200405018, "name": "Centre, Gruef", "late": 0}}, {"type": "Feature", "geometry": {"type": "Point", "coordinates": [5.966096, 49.922933]}, "properties": {"id": 120404002, "name": "Goesdorf, Maeschgaart", "late": 0}}, {"type": "Feature", "geometry": {"type": "Point", "coordinates": [6.125016, 49.61045]}, "properties": {"id": 200405025, "name": "Luxembourg/Centre, Monterey", "late": 0}}, {"type": "Feature", "geometry": {"type": "Point", "coordinates": [6.335013, 49.712451]}, "properties": {"id": 180204002, "name": "Breinertknupp", "late": 0}}, {"type": "Feature", "geometry": {"type": "Point", "coordinates": [6.121088, 49.609893]}, "properties": {"id": 200403020, "name": "Belair, Wampach", "late": 4}}, {"type": "Feature", "geometry": {"type": "Point", "coordinates": [6.142545, 49.611781]}, "properties": {"id": 200408008, "name": "Clausen, Tour Jacob", "late": 1}}, {"type": "Feature", "geometry": {"type": "Point", "coordinates": [5.878658, 49.683892]}, "properties": {"id": 190501001, "name": "Eischen, Denn", "late": 2}}, {"type": "Feature", "geometry": {"type": "Point", "coordinates": [6.147894, 49.612428]}, "properties": {"id": 200406007, "name": "Cents, Fort Dumoulin", "late": 0}}, {"type": "Feature", "geometry": {"type": "Point", "coordinates": [5.911369, 49.658039]}, "properties": {"id": 191104008, "name": "Steinfort, Um Quai", "late": 1}}, {"type": "Feature", "geometry": {"type": "Point", "coordinates": [6.16598, 49.615017]}, "properties": {"id": 200406025, "name": "Cents-Hamm, Gare", "late": 1}}, {"type": "Feature", "geometry": {"type": "Point", "coordinates": [6.165611, 49.614882]}, "properties": {"id": 200406009, "name": "Cents-Hamm, Halte CFL 3-4", "late": 0}}, {"type": "Feature", "geometry": {"type": "Point", "coordinates": [6.063997, 49.609839]}, "properties": {"id": 200101012, "name": "Bertrange, Montereale", "late": 4}}, {"type": "Feature", "geometry": {"type": "Point", "coordinates": [6.202629, 49.931186]}, "properties": {"id": 130301011, "name": "Vianden, Plank", "late": 0}}, {"type": "Feature", "geometry": {"type": "Point", "coordinates": [6.162312, 49.614073]}, "properties": {"id": 200414010, "name": "Cents, Fetschebuer", "late": 0}}, {"type": "Feature", "geometry": {"type": "Point", "coordinates": [6.107775, 49.60859]}, "properties": {"id": 200403014, "name": "Belair, Place de Liège", "late": 0}}, {"type": "Feature", "geometry": {"type": "Point", "coordinates": [6.131147, 49.610001]}, "properties": {"id": 200405007, "name": "Centre, Cathédrale", "late": 0}}, {"type": "Feature", "geometry": {"type": "Point", "coordinates": [6.147965, 49.611853]}, "properties": {"id": 200406020, "name": "Cents, I.N.S.", "late": "ERROR"}}, {"type": "Feature", "geometry": {"type": "Point", "coordinates": [6.139174, 49.610774]}, "properties": {"id": 200408006, "name": "Clausen, Rumm", "late": 1}}, {"type": "Feature", "geometry": {"type": "Point", "coordinates": [6.116854, 49.608868]}, "properties": {"id": 200403006, "name": "Belair, Crécy", "late": 2}}, {"type": "Feature", "geometry": {"type": "Point", "coordinates": [6.143219, 49.611161]}, "properties": {"id": 200406011, "name": "Cents, Kéibierg-I.N.S.", "late": 0}}, {"type": "Feature", "geometry": {"type": "Point", "coordinates": [6.080456, 49.945937]}, "properties": {"id": 140901002, "name": "Hoscheid, Kräizgaass", "late": 0}}, {"type": "Feature", "geometry": {"type": "Point", "coordinates": [6.166555, 49.614594]}, "properties": {"id": 200406024, "name": "Cents-Hamm, Halte CFL 1-2", "late": 2}}, {"type": "Feature", "geometry": {"type": "Point", "coordinates": [6.079072, 49.608509]}, "properties": {"id": 200901002, "name": "Strassen, Atrium", "late": 3}}, {"type": "Feature", "geometry": {"type": "Point", "coordinates": [6.140891, 49.610747]}, "properties": {"id": 200406006, "name": "Cents, Dinselpuert", "late": 0}}, {"type": "Feature", "geometry": {"type": "Point", "coordinates": [6.347292, 49.731508]}, "properties": {"id": 180205002, "name": "Brouch/Wecker, Gaerleck", "late": 2}}, {"type": "Feature", "geometry": {"type": "Point", "coordinates": [6.050289, 49.610576]}, "properties": {"id": 200101008, "name": "Bertrange, Gemeng", "late": 4}}, {"type": "Feature", "geometry": {"type": "Point", "coordinates": [6.157341, 49.612779]}, "properties": {"id": 200406015, "name": "Cents, Pommiers", "late": 0}}, {"type": "Feature", "geometry": {"type": "Point", "coordinates": [6.11297, 49.608275]}, "properties": {"id": 200403007, "name": "Belair, Franciscaines", "late": 2}}, {"type": "Feature", "geometry": {"type": "Point", "coordinates": [6.09803, 49.607817]}, "properties": {"id": 200420016, "name": "Merl, Charlemagne", "late": 0}}, {"type": "Feature", "geometry": {"type": "Point", "coordinates": [6.130832, 49.609282]}, "properties": {"id": 200405013, "name": "Centre, F.D. Roosevelt", "late": 1}}, {"type": "Feature", "geometry": {"type": "Point", "coordinates": [5.843366, 49.729701]}, "properties": {"id": 150107002, "name": "Oberpallen, Schnuddelbierg", "late": 0}}, {"type": "Feature", "geometry": {"type": "Point", "coordinates": [6.151651, 49.611592]}, "properties": {"id": 200406013, "name": "Cents, Nic Rollinger", "late": 0}}, {"type": "Feature", "geometry": {"type": "Point", "coordinates": [6.110112, 49.607457]}, "properties": {"id": 200420012, "name": "Merl, Parc", "late": 2}}, {"type": "Feature", "geometry": {"type": "Point", "coordinates": [5.842395, 49.730034]}, "properties": {"id": 150107001, "name": "Oberpallen, Bréck", "late": 4}}, {"type": "Feature", "geometry": {"type": "Point", "coordinates": [6.349836, 49.821886]}, "properties": {"id": 170301004, "name": "Berdorf, Duerfplaz", "late": 2}}, {"type": "Feature", "geometry": {"type": "Point", "coordinates": [6.174493, 49.614837]}, "properties": {"id": 200414009, "name": "Hamm, Ronndréisch", "late": 2}}, {"type": "Feature", "geometry": {"type": "Point", "coordinates": [6.359023, 49.781641]}, "properties": {"id": 170403003, "name": "Scheidgen, Veräinsbau", "late": 0}}, {"type": "Feature", "geometry": {"type": "Point", "coordinates": [6.114957, 49.607295]}, "properties": {"id": 200403004, "name": "Belair, Bragance", "late": 0}}]