[{"type": "Feature", "geometry": {"type": "Point", "coordinates": [6.333548, 49.632906]}, "properties": {"id": 180301001, "name": "Beyren, An der Fuert", "late": 2}}, {"type": "Feature", "geometry": {"type": "Point", "coordinates": [6.064411, 49.56697]}, "properties": {"id": 220701016, "name": "Leudelange, Wäschbur", "late": 3}}, {"type": "Feature", "geometry": {"type": "Point", "coordinates": [6.41837, 49.810586]}, "properties": {"id": 170501013, "name": "Echternach, Remparts", "late": 0}}, {"type": "Feature", "geometry": {"type": "Point", "coordinates": [6.260142, 49.594854]}, "properties": {"id": 200204002, "name": "Oetrange, Kurzebierg", "late": 0}}, {"type": "Feature", "geometry": {"type": "Point", "coordinates": [5.815616, 49.887381]}, "properties": {"id": 120101004, "name": "Boulaide, Post", "late": 17}}, {"type": "Feature", "geometry": {"type": "Point", "coordinates": [6.088277, 49.988672]}, "properties": {"id": 110203001, "name": "Ennert Schinker", "late": 1}}, {"type": "Feature", "geometry": {"type": "Point", "coordinates": [5.992794, 49.576309]}, "properties": {"id": 190301003, "name": "Bettange, Këscht", "late": 0}}, {"type": "Feature", "geometry": {"type": "Point", "coordinates": [5.925941, 49.958621]}, "properties": {"id": 120901001, "name": "Roullingen, Chalets Scouts", "late": 0}}, {"type": "Feature", "geometry": {"type": "Point", "coordinates": [6.079764, 49.565648]}, "properties": {"id": 220701003, "name": "Leudelange, Edeleck", "late": 34}}, {"type": "Feature", "geometry": {"type": "Point", "coordinates": [5.921222, 49.956904]}, "properties": {"id": 120901003, "name": "Roullingen, Réimerwee", "late": 0}}, {"type": "Feature", "geometry": {"type": "Point", "coordinates": [6.419044, 49.811809]}, "properties": {"id": 170501005, "name": "Echternach, Centre Ville", "late": 0}}, {"type": "Feature", "geometry": {"type": "Point", "coordinates": [5.909113, 49.602819]}, "properties": {"id": 190202003, "name": "Fingig, Maerchen", "late": 9}}, {"type": "Feature", "geometry": {"type": "Point", "coordinates": [5.849622, 49.918097]}, "properties": {"id": 120701002, "name": "BAVIGNE, Parking", "late": "ERROR"}}, {"type": "Feature", "geometry": {"type": "Point", "coordinates": [5.937807, 49.963439]}, "properties": {"id": 120903005, "name": "Wiltz, Belle Vue", "late": 8}}, {"type": "Feature", "geometry": {"type": "Point", "coordinates": [6.108476, 49.565244]}, "properties": {"id": 200418003, "name": "Kockelscheuer, Patinoire", "late": 0}}, {"type": "Feature", "geometry": {"type": "Point", "coordinates": [5.955965, 49.585137]}, "properties": {"id": 190303007, "name": "Schouweiler, Belair", "late": 5}}, {"type": "Feature", "geometry": {"type": "Point", "coordinates": [5.934759, 49.962495]}, "properties": {"id": 120903006, "name": "Wiltz, Brandbau", "late": 8}}, {"type": "Feature", "geometry": {"type": "Point", "coordinates": [5.776981, 49.830506]}, "properties": {"id": 150515006, "name": "Wolwelange, Ermitage 2", "late": 2}}, {"type": "Feature", "geometry": {"type": "Point", "coordinates": [5.989495, 49.575914]}, "properties": {"id": 190305001, "name": "Bettange, Dippecherstrooss", "late": 4}}, {"type": "Feature", "geometry": {"type": "Point", "coordinates": [6.097113, 49.990092]}, "properties": {"id": 110412004, "name": "Wahlhausen, Beim Chalet", "late": 4}}, {"type": "Feature", "geometry": {"type": "Point", "coordinates": [6.152478, 49.567581]}, "properties": {"id": 200302003, "name": "Fentange, Hiehl", "late": 4}}, {"type": "Feature", "geometry": {"type": "Point", "coordinates": [6.245876, 49.587825]}, "properties": {"id": 200205001, "name": "Milbech", "late": 6}}, {"type": "Feature", "geometry": {"type": "Point", "coordinates": [5.883835, 49.94093]}, "properties": {"id": 120707001, "name": "Nothum, Duerfstrooss", "late": 0}}, {"type": "Feature", "geometry": {"type": "Point", "coordinates": [5.815661, 49.890599]}, "properties": {"id": 120101003, "name": "Boulaide, Camping", "late": 2}}, {"type": "Feature", "geometry": {"type": "Point", "coordinates": [5.96108, 49.582593]}, "properties": {"id": 190303009, "name": "Schouweiler, Bei der Schoul", "late": 5}}, {"type": "Feature", "geometry": {"type": "Point", "coordinates": [5.840795, 49.64158]}, "properties": {"id": 300000053, "name": "Hondelange, Chemin des Mines", "late": 0}}, {"type": "Feature", "geometry": {"type": "Point", "coordinates": [5.768333, 49.809409]}, "properties": {"id": 150511003, "name": "Perlé, Héiltzerwee", "late": 6}}, {"type": "Feature", "geometry": {"type": "Point", "coordinates": [6.161045, 49.567842]}, "properties": {"id": 200301003, "name": "Alzingen, Trapeneck", "late": 24}}, {"type": "Feature", "geometry": {"type": "Point", "coordinates": [5.773331, 49.82727]}, "properties": {"id": 150515004, "name": "Wolwëner Halt", "late": 0}}, {"type": "Feature", "geometry": {"type": "Point", "coordinates": [6.084133, 49.990982]}, "properties": {"id": 110202004, "name": "Holzthum, Ferme Theves", "late": 0}}, {"type": "Feature", "geometry": {"type": "Point", "coordinates": [6.163786, 49.567842]}, "properties": {"id": 200301001, "name": "Alzingen, Gässel", "late": 0}}, {"type": "Feature", "geometry": {"type": "Point", "coordinates": [5.95636, 49.582979]}, "properties": {"id": 190303010, "name": "Schouweiler, Kierfecht", "late": 5}}, {"type": "Feature", "geometry": {"type": "Point", "coordinates": [5.881264, 49.940885]}, "properties": {"id": 120707002, "name": "Nothum, Molkerei", "late": 0}}, {"type": "Feature", "geometry": {"type": "Point", "coordinates": [6.163175, 49.986811]}, "properties": {"id": 110402002, "name": "Parc Hosingen, Gemönnerbréck", "late": 6}}, {"type": "Feature", "geometry": {"type": "Point", "coordinates": [6.335732, 49.62993]}, "properties": {"id": 180301002, "name": "Beyren, Op der Bréck", "late": 2}}, {"type": "Feature", "geometry": {"type": "Point", "coordinates": [5.964352, 49.580471]}, "properties": {"id": 190304002, "name": "Sprinkange, Place de l'Eglise", "late": 0}}, {"type": "Feature", "geometry": {"type": "Point", "coordinates": [5.996165, 49.572786]}, "properties": {"id": 190301001, "name": "Bettange, Bei der Barriär", "late": 1}}, {"type": "Feature", "geometry": {"type": "Point", "coordinates": [5.848166, 49.920677]}, "properties": {"id": 120701001, "name": "Bavigne, Gemeng", "late": 4}}, {"type": "Feature", "geometry": {"type": "Point", "coordinates": [6.087612, 49.991575]}, "properties": {"id": 110203002, "name": "Schinker, Um Rank", "late": 0}}, {"type": "Feature", "geometry": {"type": "Point", "coordinates": [5.959749, 49.58146]}, "properties": {"id": 190303001, "name": "Schouweiler, Bei der aler Schoul", "late": 9}}, {"type": "Feature", "geometry": {"type": "Point", "coordinates": [6.06975, 49.563347]}, "properties": {"id": 220701011, "name": "Leudelange, Op der Strooss", "late": 34}}, {"type": "Feature", "geometry": {"type": "Point", "coordinates": [6.251584, 49.587995]}, "properties": {"id": 200203002, "name": "Moutfort, Juxgaass", "late": 6}}, {"type": "Feature", "geometry": {"type": "Point", "coordinates": [5.934499, 49.965147]}, "properties": {"id": 120903011, "name": "Wiltz, Clinique", "late": 8}}, {"type": "Feature", "geometry": {"type": "Point", "coordinates": [5.995257, 49.572516]}, "properties": {"id": 190301004, "name": "Dippach-Reckange, Gare", "late": 7}}, {"type": "Feature", "geometry": {"type": "Point", "coordinates": [6.088637, 49.991989]}, "properties": {"id": 110203003, "name": "Um Schinker", "late": 3}}, {"type": "Feature", "geometry": {"type": "Point", "coordinates": [5.929986, 49.963843]}, "properties": {"id": 120903035, "name": "Wiltz, Huuschtewee", "late": 8}}]