[{"type": "Feature", "geometry": {"type": "Point", "coordinates": [6.217731, 49.703435]}, "properties": {"id": 180504002, "name": "Bourglinster, Am Duerf", "late": 0}}, {"type": "Feature", "geometry": {"type": "Point", "coordinates": [6.187707, 49.867695]}, "properties": {"id": 140203011, "name": "GILSDORF, Beim Kierfecht", "late": 4}}, {"type": "Feature", "geometry": {"type": "Point", "coordinates": [6.124908, 49.670516]}, "properties": {"id": 200801011, "name": "Steinsel, Kennedy", "late": 0}}, {"type": "Feature", "geometry": {"type": "Point", "coordinates": [6.254524, 49.811719]}, "properties": {"id": 141002001, "name": "Savelborn, Halerstrooss", "late": 2}}, {"type": "Feature", "geometry": {"type": "Point", "coordinates": [6.173288, 49.873592]}, "properties": {"id": 140401013, "name": "Diekirch, Centre Militaire", "late": "ERROR"}}, {"type": "Feature", "geometry": {"type": "Point", "coordinates": [6.150968, 49.879848]}, "properties": {"id": 140401003, "name": "Diekirch, Dräi Braken", "late": 1}}, {"type": "Feature", "geometry": {"type": "Point", "coordinates": [6.119685, 49.669555]}, "properties": {"id": 200801004, "name": "Steinsel, Laval", "late": 13}}, {"type": "Feature", "geometry": {"type": "Point", "coordinates": [6.258524, 49.804725]}, "properties": {"id": 170804004, "name": "Waldbillig, Scheedhaff", "late": 0}}, {"type": "Feature", "geometry": {"type": "Point", "coordinates": [6.259809, 49.80157]}, "properties": {"id": 141003001, "name": "Freckeisen", "late": 0}}, {"type": "Feature", "geometry": {"type": "Point", "coordinates": [6.135902, 49.671173]}, "properties": {"id": 200802002, "name": "Heisdorf, Bei der Parkmauer", "late": 8}}, {"type": "Feature", "geometry": {"type": "Point", "coordinates": [6.072879, 49.668799]}, "properties": {"id": 190802003, "name": "Kopstal, Saangen", "late": 0}}, {"type": "Feature", "geometry": {"type": "Point", "coordinates": [6.127578, 49.669734]}, "properties": {"id": 200801009, "name": "Steinsel, Zone Industrielle", "late": 0}}, {"type": "Feature", "geometry": {"type": "Point", "coordinates": [5.925608, 49.772346]}, "properties": {"id": 150607002, "name": "Reichlange, Molkerei", "late": 2}}, {"type": "Feature", "geometry": {"type": "Point", "coordinates": [6.260636, 49.752183]}, "properties": {"id": 160502001, "name": "Reuland", "late": 8}}, {"type": "Feature", "geometry": {"type": "Point", "coordinates": [5.931316, 49.806119]}, "properties": {"id": 150203003, "name": "Pratz, Brakegaertchen", "late": 0}}, {"type": "Feature", "geometry": {"type": "Point", "coordinates": [5.925186, 49.775447]}, "properties": {"id": 150607001, "name": "Reichlange, Hostellerie", "late": 3}}, {"type": "Feature", "geometry": {"type": "Point", "coordinates": [6.265931, 49.788131]}, "properties": {"id": 170801003, "name": "Christnach, Fielserstrooss", "late": 7}}, {"type": "Feature", "geometry": {"type": "Point", "coordinates": [6.095136, 49.888001]}, "properties": {"id": 140307004, "name": "Michelau, Willspull", "late": 0}}, {"type": "Feature", "geometry": {"type": "Point", "coordinates": [5.950787, 49.71753]}, "properties": {"id": 150702002, "name": "Ehner, Krier", "late": 0}}, {"type": "Feature", "geometry": {"type": "Point", "coordinates": [6.135156, 49.668763]}, "properties": {"id": 201003003, "name": "Heisdorf, Millewee", "late": 8}}, {"type": "Feature", "geometry": {"type": "Point", "coordinates": [6.065885, 49.887255]}, "properties": {"id": 140310002, "name": "Welscheid, Jongerts", "late": 0}}, {"type": "Feature", "geometry": {"type": "Point", "coordinates": [6.059934, 49.886779]}, "properties": {"id": 140310001, "name": "Welscheid, Bei der Bréck", "late": 0}}, {"type": "Feature", "geometry": {"type": "Point", "coordinates": [6.17176, 49.878131]}, "properties": {"id": 140401014, "name": "Diekirch, Hall logistique", "late": "ERROR"}}, {"type": "Feature", "geometry": {"type": "Point", "coordinates": [6.189226, 49.871902]}, "properties": {"id": 140202001, "name": "Bleesbréck", "late": 6}}, {"type": "Feature", "geometry": {"type": "Point", "coordinates": [5.948018, 49.717152]}, "properties": {"id": 150702001, "name": "Ehner, Kapell", "late": 0}}, {"type": "Feature", "geometry": {"type": "Point", "coordinates": [6.269437, 49.787349]}, "properties": {"id": 170801001, "name": "Christnach, Hierheck", "late": 5}}, {"type": "Feature", "geometry": {"type": "Point", "coordinates": [6.035942, 49.670741]}, "properties": {"id": 190602004, "name": "Kehlen, Schaarfeneck", "late": 8}}, {"type": "Feature", "geometry": {"type": "Point", "coordinates": [5.928305, 49.742673]}, "properties": {"id": 150106001, "name": "Noerdange, Ale Pompjesbau", "late": 0}}, {"type": "Feature", "geometry": {"type": "Point", "coordinates": [6.072681, 49.664278]}, "properties": {"id": 190802001, "name": "Kopstal, Bréck", "late": 20}}, {"type": "Feature", "geometry": {"type": "Point", "coordinates": [6.134293, 49.665869]}, "properties": {"id": 201003002, "name": "Helsem, Mercatoris", "late": 7}}, {"type": "Feature", "geometry": {"type": "Point", "coordinates": [5.934553, 49.826039]}, "properties": {"id": 151002001, "name": "Buschrodt", "late": 0}}, {"type": "Feature", "geometry": {"type": "Point", "coordinates": [6.233165, 49.84959]}, "properties": {"id": 140504001, "name": "Keiwelbaach", "late": 0}}, {"type": "Feature", "geometry": {"type": "Point", "coordinates": [5.964729, 49.699273]}, "properties": {"id": 191002001, "name": "Septfontaines, Schoul", "late": 4}}, {"type": "Feature", "geometry": {"type": "Point", "coordinates": [6.26585, 49.743653]}, "properties": {"id": 180503001, "name": "Blumenthal/Blummendall", "late": 2}}, {"type": "Feature", "geometry": {"type": "Point", "coordinates": [6.273041, 49.788212]}, "properties": {"id": 170801002, "name": "Christnach, Schoulstrooss", "late": 12}}, {"type": "Feature", "geometry": {"type": "Point", "coordinates": [5.933123, 49.826443]}, "properties": {"id": 151002002, "name": "Buschrodt, Schoul", "late": 0}}, {"type": "Feature", "geometry": {"type": "Point", "coordinates": [6.038333, 49.667316]}, "properties": {"id": 190602005, "name": "Kehlen, Um Knapp", "late": 8}}, {"type": "Feature", "geometry": {"type": "Point", "coordinates": [5.924458, 49.740902]}, "properties": {"id": 150106003, "name": "Noerdange, Beim Kiirfecht", "late": 0}}, {"type": "Feature", "geometry": {"type": "Point", "coordinates": [6.034405, 49.667514]}, "properties": {"id": 190602001, "name": "Kehlen, Bei Fiewer", "late": 8}}, {"type": "Feature", "geometry": {"type": "Point", "coordinates": [6.072483, 49.66132]}, "properties": {"id": 190802002, "name": "Kopstal, Kapell", "late": 3}}, {"type": "Feature", "geometry": {"type": "Point", "coordinates": [6.248186, 49.714833]}, "properties": {"id": 180511003, "name": "Junglinster, Op der Rumm", "late": 0}}, {"type": "Feature", "geometry": {"type": "Point", "coordinates": [5.920997, 49.809319]}, "properties": {"id": 150201002, "name": "G. Préizerdaul, Horass", "late": 0}}, {"type": "Feature", "geometry": {"type": "Point", "coordinates": [5.922408, 49.74154]}, "properties": {"id": 150106004, "name": "Noerdange, Bei der Post", "late": 0}}, {"type": "Feature", "geometry": {"type": "Point", "coordinates": [6.072123, 49.660853]}, "properties": {"id": 190802004, "name": "Kopstal, Kléipesch", "late": 7}}, {"type": "Feature", "geometry": {"type": "Point", "coordinates": [6.13325, 49.662345]}, "properties": {"id": 201003004, "name": "Helsem, Tricentenaire", "late": 7}}, {"type": "Feature", "geometry": {"type": "Point", "coordinates": [6.249777, 49.715184]}, "properties": {"id": 180511001, "name": "Junglinster, Gemeng", "late": 0}}, {"type": "Feature", "geometry": {"type": "Point", "coordinates": [6.134616, 49.892038]}, "properties": {"id": 140402001, "name": "Fridhaff", "late": 2}}]